[{"type":"Feature","geometry":{"type":"Point","coordinates":[2.3004567,48.79738]},"busses":[{"direction":"Porte d'Orléans","line_number":"388"}],"properties":{"name":"Rue Froide"}},{"type":"Feature","geometry":{"type":"Point","coordinates":[2.3176176,48.7980834]},"busses":[{"direction":"Porte d'Orléans","line_number":"388"}],"properties":{"name":"Pasteur - Meuniers"}},{"type":"Feature","geometry":{"type":"Point","coordinates":[2.3131575,48.7801956]},"busses":[{"direction":"Porte d'Orléans","line_number":"388"}],"properties":{"name":"Bourg-la-Reine RER"}},{"type":"Feature","geometry":{"type":"Point","coordinates":[2.323184,48.8233899]},"busses":[{"direction":"Porte d'Orléans","line_number":"388"}],"properties":{"name":"Porte d'Orléans - Ernest Reyer"}},{"type":"Feature","geometry":{"type":"Point","coordinates":[2.3026969,48.813766]},"busses":[{"direction":"Porte d'Orléans","line_number":"388"}],"properties":{"name":"Étienne Dolet"}},{"type":"Feature","geometry":{"type":"Point","coordinates":[2.3248221,48.8231418]},"busses":[{"direction":"Porte d'Orléans","line_number":"388"}],"properties":{"name":"Porte d'Orléans"}},{"type":"Feature","geometry":{"type":"Point","coordinates":[2.308727,48.8181718]},"busses":[{"direction":"Porte d'Orléans","line_number":"388"}],"properties":{"name":"12 Février 1934"}},{"type":"Feature","geometry":{"type":"Point","coordinates":[2.3065895,48.8166481]},"busses":[{"direction":"Porte d'Orléans","line_number":"388"}],"properties":{"name":"Augustin Dumont"}},{"type":"Feature","geometry":{"type":"Point","coordinates":[2.2981838,48.8062317]},"busses":[{"direction":"Porte d'Orléans","line_number":"388"}],"properties":{"name":"Pierre Semard - Châtillon-Montrouge"}},{"type":"Feature","geometry":{"type":"Point","coordinates":[2.3181865,48.8237145]},"busses":[{"direction":"Porte d'Orléans","line_number":"388"}],"properties":{"name":"Jean Moulin"}},{"type":"Feature","geometry":{"type":"Point","coordinates":[2.2942014,48.8011932]},"busses":[{"direction":"Porte d'Orléans","line_number":"388"}],"properties":{"name":"République - Liberté"}},{"type":"Feature","geometry":{"type":"Point","coordinates":[2.2976917,48.8036576]},"busses":[{"direction":"Porte d'Orléans","line_number":"388"}],"properties":{"name":"République – Deforges"}},{"type":"Feature","geometry":{"type":"Point","coordinates":[2.3065342,48.7974854]},"busses":[{"direction":"Porte d'Orléans","line_number":"388"}],"properties":{"name":"Rue des Olivettes"}},{"type":"Feature","geometry":{"type":"Point","coordinates":[2.3136115,48.8006739]},"busses":[{"direction":"Porte d'Orléans","line_number":"388"}],"properties":{"name":"Jean Longuet"}},{"type":"Feature","geometry":{"type":"Point","coordinates":[2.3181137,48.8000343]},"busses":[{"direction":"Porte d'Orléans","line_number":"388"}],"properties":{"name":"Cosson - Longuet"}},{"type":"Feature","geometry":{"type":"Point","coordinates":[2.3157572,48.7927217]},"busses":[{"direction":"Porte d'Orléans","line_number":"388"}],"properties":{"name":"Les Blains"}},{"type":"Feature","geometry":{"type":"Point","coordinates":[2.3111465,48.7864688]},"busses":[{"direction":"Porte d'Orléans","line_number":"388"}],"properties":{"name":"Les Bas Coquarts"}},{"type":"Feature","geometry":{"type":"Point","coordinates":[2.3172817,48.7961415]},"busses":[{"direction":"Porte d'Orléans","line_number":"388"}],"properties":{"name":"Albert Petit"}},{"type":"Feature","geometry":{"type":"Point","coordinates":[2.3104545,48.7885629]},"busses":[{"direction":"Porte d'Orléans","line_number":"388"}],"properties":{"name":"Frères Lumière"}},{"type":"Feature","geometry":{"type":"Point","coordinates":[2.3144403,48.7899837]},"busses":[{"direction":"Porte d'Orléans","line_number":"388"}],"properties":{"name":"Port Galand"}},{"type":"Feature","geometry":{"type":"Point","coordinates":[2.3025733,48.7970103]},"busses":[{"direction":"Porte d'Orléans","line_number":"388"}],"properties":{"name":"Rosenberg"}},{"type":"Feature","geometry":{"type":"Point","coordinates":[2.3138731,48.821972]},"busses":[{"direction":"Porte d'Orléans","line_number":"388"}],"properties":{"name":"Dépinoy"}},{"type":"Feature","geometry":{"type":"Point","coordinates":[2.3157656,48.7828748]},"busses":[{"direction":"Porte d'Orléans","line_number":"388"}],"properties":{"name":"Rue du 8 Mai 1945"}},{"type":"Feature","geometry":{"type":"Point","coordinates":[2.3101844,48.819314]},"busses":[{"direction":"Porte d'Orléans","line_number":"388"}],"properties":{"name":"Pierre Brossolette - Gabriel Péri"}},{"type":"Feature","geometry":{"type":"Point","coordinates":[2.3000922,48.8111619]},"busses":[{"direction":"Porte d'Orléans","line_number":"388"}],"properties":{"name":"Châtillon - Montrouge"}},{"type":"Feature","geometry":{"type":"Point","coordinates":[2.2985066,48.8091797]},"busses":[{"direction":"Porte d'Orléans","line_number":"388"}],"properties":{"name":"Maison Blanche"}},{"type":"Feature","geometry":{"type":"Point","coordinates":[2.3126397,48.7844487]},"busses":[{"direction":"Porte d'Orléans","line_number":"388"}],"properties":{"name":"Pierre Loti"}},{"type":"Feature","geometry":{"type":"Point","coordinates":[2.318742,48.8018183]},"busses":[{"direction":"Porte d'Orléans","line_number":"388"}],"properties":{"name":"Martyrs de Châteaubriant - Métro"}}]